City_ID,City,Country,Date,Lat,Lng,Max Temp,Humidity,Cloudiness,Wind Speed
0,Adana,TR,2023-08-01 17:19:33,36.985,35.2881,84.72,74,40,8.05
1,Kodinsk,RU,2023-08-01 17:19:34,58.6881,99.1844,62.38,95,4,1.19
2,Cidreira,BR,2023-08-01 17:19:34,-30.1811,-50.2056,68.88,71,7,7.02
3,Kariba,ZW,2023-08-01 17:19:35,-16.5167,28.8,73.18,44,63,5.03
4,Deputatskiy,RU,2023-08-01 17:19:35,69.3,139.9,36.68,94,61,3.02
5,Pulawy,PL,2023-08-01 17:19:35,51.4166,21.9694,68.72,57,100,7.58
6,Ashta,IN,2023-08-01 17:19:36,23.0167,76.7167,75.99,87,44,13.13
7,The Pas,CA,2023-08-01 17:19:36,53.8251,-101.2541,75.22,64,0,10.36
8,Coihueco,CL,2023-08-01 17:19:36,-36.6167,-71.8333,59.74,72,40,6.91
9,Alihe,CN,2023-08-01 17:19:37,50.5667,123.7167,65.35,96,98,2.73
10,Port Hardy,CA,2023-08-01 17:19:37,50.6996,-127.4199,62.78,82,75,4.61
11,Vryburg,ZA,2023-08-01 17:19:37,-26.9566,24.7284,48.69,15,0,9.15
12,Cockburn Town,TC,2023-08-01 17:19:37,21.4612,-71.1419,83.91,78,100,15.03
13,Basoko,CD,2023-08-01 17:19:37,1.2391,23.616,77.29,75,84,3.56
14,Rawah,IQ,2023-08-01 17:19:38,34.4816,41.9093,101.68,14,0,10.04
15,Inhambane,MZ,2023-08-01 17:19:38,-23.865,35.3833,65.98,76,46,14.38
16,Novoilinsk,RU,2023-08-01 17:19:39,51.6829,108.7143,70.23,60,99,0.29
17,Berezanka,UA,2023-08-01 17:19:39,46.8526,31.388,77.27,48,52,7.0
18,Kruisfontein,ZA,2023-08-01 17:19:39,-34.0033,24.7314,50.88,81,57,2.04
19,Torbay,CA,2023-08-01 17:19:39,47.6666,-52.7314,69.89,80,75,11.5
20,Itarema,BR,2023-08-01 17:19:40,-2.9248,-39.9167,88.02,51,4,17.81
21,Muroto,JP,2023-08-01 17:19:40,33.2833,134.15,80.11,86,16,6.11
22,Mount Pleasant,US,2023-08-01 17:14:49,32.7941,-79.8626,89.98,68,40,5.99
23,Gari,RU,2023-08-01 17:19:40,59.4307,62.3497,63.7,88,99,5.59
24,Ormara,PK,2023-08-01 17:19:41,25.2088,64.6357,81.93,82,40,12.77
25,Pemangkat,ID,2023-08-01 17:19:41,1.1667,108.9667,80.04,82,55,5.01
26,Siguiri,GN,2023-08-01 17:19:41,11.6667,-9.5,83.44,74,78,4.47
27,Mandera,KE,2023-08-01 17:19:41,3.9366,41.867,86.34,41,70,17.07
28,Esperance,AU,2023-08-01 17:19:41,-33.8667,121.9,60.53,40,1,17.0
29,Cascais,PT,2023-08-01 17:19:42,38.6979,-9.4215,80.46,80,75,21.0
30,Hithadhoo,MV,2023-08-01 17:19:42,-0.6,73.0833,81.82,74,30,4.76
31,Ayan,RU,2023-08-01 17:19:42,56.45,138.1667,54.54,94,89,6.4
32,Salta,AR,2023-08-01 17:18:37,-24.7859,-65.4117,83.57,35,0,4.61
33,Rindal,NO,2023-08-01 17:19:43,63.0565,9.2124,63.09,74,96,0.92
34,Henties Bay,NA,2023-08-01 17:19:43,-22.116,14.2845,63.27,45,0,9.08
35,Benguela,AO,2023-08-01 17:19:43,-12.5763,13.4055,68.36,81,41,6.29
36,Sakakah,SA,2023-08-01 17:19:43,29.9697,40.2064,101.77,11,0,10.76
37,Norman Wells,CA,2023-08-01 17:19:44,65.282,-126.8329,68.04,64,75,6.91
38,Kragero,NO,2023-08-01 17:20:44,58.8693,9.4149,64.72,64,66,3.15
39,Paita,PE,2023-08-01 17:20:44,-5.0892,-81.1144,76.12,68,62,10.83
40,San Jose,US,2023-08-01 17:19:00,37.3394,-121.895,73.78,68,75,4.61
41,Port Blair,IN,2023-08-01 17:20:45,11.6667,92.75,84.24,84,40,13.8
42,Petropavlovsk-Kamchatskiy,RU,2023-08-01 17:20:45,53.0452,158.6483,50.59,100,75,2.24
43,Pevek,RU,2023-08-01 17:20:45,69.7008,170.3133,34.41,96,100,5.3
44,Talnakh,RU,2023-08-01 17:20:45,69.4865,88.3972,67.21,73,7,5.99
45,Burnie,AU,2023-08-01 17:20:46,-41.0667,145.9167,38.44,83,75,4.81
46,Araouane,ML,2023-08-01 17:20:46,18.9048,-3.5265,112.08,9,0,7.09
47,Tessalit,ML,2023-08-01 17:20:46,20.1986,1.0114,112.21,5,26,4.52
48,Esil,KZ,2023-08-01 17:20:46,51.9556,66.4042,70.12,66,62,18.61
49,Marzuq,YE,2023-08-01 17:20:47,14.4,46.4667,82.04,50,89,8.88
50,Severo-Yeniseyskiy,RU,2023-08-01 17:20:47,60.3725,93.0408,58.98,97,34,3.29
51,Pringsewu,ID,2023-08-01 17:20:47,-5.3582,104.9744,72.73,97,10,2.35
52,Sur,OM,2023-08-01 17:20:47,22.5667,59.5289,91.27,55,43,8.77
53,Santa Cruz De La Palma,ES,2023-08-01 17:20:48,28.6835,-17.7642,82.13,78,75,17.27
54,Sola,VU,2023-08-01 17:20:48,-13.8833,167.55,75.43,76,80,23.91
55,Libenge,CD,2023-08-01 17:20:48,3.65,18.6333,75.42,90,98,2.62
56,Muros,ES,2023-08-01 17:20:49,42.7762,-9.0603,77.16,76,73,5.99
57,Kibala,TD,2023-08-01 17:20:49,9.1104,18.3463,72.09,96,99,2.66
58,Ca Mau,VN,2023-08-01 17:20:49,9.1769,105.15,77.9,93,79,5.57
59,San Pedro,PH,2023-08-01 17:18:28,14.35,121.0167,79.2,96,75,1.99
60,Sistranda,NO,2023-08-01 17:20:49,63.7256,8.834,60.76,83,92,3.47
61,Port Hawkesbury,CA,2023-08-01 17:20:50,45.6169,-61.3485,75.88,72,75,9.22
62,Huoqiu,CN,2023-08-01 17:20:50,32.3394,116.2694,77.86,92,21,7.27
63,Sao Filipe,CV,2023-08-01 17:20:50,14.8961,-24.4956,77.9,83,90,5.75
64,Grand Gaube,MU,2023-08-01 17:20:50,-20.0064,57.6608,72.0,77,15,16.06
65,Lagoa,PT,2023-08-01 17:20:51,39.05,-27.9833,74.19,88,33,12.97
66,Rio Gallegos,AR,2023-08-01 17:20:51,-51.6226,-69.2181,41.05,70,20,18.41
67,Belaya Gora,RU,2023-08-01 17:20:51,68.5333,146.4167,42.78,88,12,4.23
68,Evensk,RU,2023-08-01 17:20:52,61.95,159.2333,56.12,67,100,11.27
69,Umea,SE,2023-08-01 17:20:52,63.8284,20.2597,62.53,88,0,5.75
70,Inuvik,CA,2023-08-01 17:20:52,68.3499,-133.7218,63.36,100,75,4.61
71,Chandur,IN,2023-08-01 17:20:52,19.7333,79.1833,79.86,80,100,11.52
72,Tiarei,PF,2023-08-01 17:20:52,-17.5333,-149.3333,71.62,75,99,17.25
73,Wum,CM,2023-08-01 17:20:53,6.3833,10.0667,67.46,96,99,2.95
74,Eureka,US,2023-08-01 17:20:53,40.8021,-124.1637,59.94,88,10,1.99
75,Mantua,IT,2023-08-01 17:20:53,45.1667,10.7833,86.09,60,98,3.0
76,Shahpur,IN,2023-08-01 17:20:54,16.7,76.8333,76.78,79,98,19.73
77,Mujiayingzi,CN,2023-08-01 17:20:54,42.1167,118.7833,74.97,84,62,11.39
78,Lavrentiya,RU,2023-08-01 17:20:54,65.5833,-171.0,44.98,96,94,4.99
79,Manokwari,ID,2023-08-01 17:20:55,-0.8667,134.0833,78.76,82,37,3.83
80,Grindavik,IS,2023-08-01 17:20:55,63.8424,-22.4338,55.35,76,20,10.36
81,Bakaly,RU,2023-08-01 17:20:55,55.1789,53.8028,67.28,69,32,5.28
82,Salina,US,2023-08-01 17:20:01,38.8403,-97.6114,97.05,56,0,3.44
83,Concarneau,FR,2023-08-01 17:21:56,47.875,-3.9225,63.39,96,99,15.26
84,Zhangye,CN,2023-08-01 17:21:56,38.9342,100.4517,74.61,53,93,7.34
85,Gizo,SB,2023-08-01 17:21:56,-8.103,156.8419,79.88,82,100,21.05
86,Murgab,TM,2023-08-01 17:21:57,37.4966,61.9714,94.87,20,1,9.22
87,Ino,JP,2023-08-01 17:21:57,33.55,133.4333,78.33,92,34,1.9
88,Gao,ML,2023-08-01 17:21:57,16.6362,1.637,101.88,25,92,13.65
89,Bushehr,IR,2023-08-01 17:21:57,28.9684,50.8385,91.49,75,0,4.61
90,Mar Del Plata,AR,2023-08-01 17:21:02,-38.0023,-57.5575,71.62,68,0,9.22
91,Ballina,AU,2023-08-01 17:21:58,-28.8667,153.5667,56.79,76,36,10.47
92,Caxito,AO,2023-08-01 17:21:58,-8.5785,13.6643,71.91,77,20,10.6
93,Zabid,YE,2023-08-01 17:21:58,14.1951,43.3152,92.43,47,100,8.28
94,Khandyga,RU,2023-08-01 17:21:58,62.6667,135.6,51.35,92,97,3.38
95,Hasaki,JP,2023-08-01 17:21:59,35.7333,140.8333,76.3,91,85,12.17
96,Shipitsyno,RU,2023-08-01 17:21:59,61.2806,46.5208,65.19,97,100,4.52
97,Praya,CV,2023-08-01 17:21:59,14.9215,-23.5087,79.34,89,75,8.05
98,Port-Gentil,GA,2023-08-01 17:21:59,-0.7193,8.7815,75.16,78,100,11.5
99,Anadyr,RU,2023-08-01 17:22:00,64.75,177.4833,55.0,66,85,11.18
100,Wuwei,CN,2023-08-01 17:22:00,37.9281,102.6414,75.85,49,99,0.49
101,Axim,GH,2023-08-01 17:22:01,4.8699,-2.2405,77.4,87,90,9.93
102,Westport,US,2023-08-01 17:22:01,41.1415,-73.3579,80.42,45,75,11.01
103,Epe,NG,2023-08-01 17:22:01,6.5841,3.9834,75.63,93,100,8.63
104,Rudbar,AF,2023-08-01 17:22:02,30.15,62.6,98.08,9,0,4.9
105,Santarem,BR,2023-08-01 17:18:23,-2.4431,-54.7083,87.93,70,40,9.22
106,Gravelbourg,CA,2023-08-01 17:22:03,49.8834,-106.5512,77.27,47,41,13.91
107,Plouzane,FR,2023-08-01 17:22:04,48.3833,-4.6167,61.12,100,100,16.11
108,Fare,PF,2023-08-01 17:22:04,-16.7,-151.0167,79.3,72,99,19.1
109,Nosy Varika,MG,2023-08-01 17:22:04,-20.5833,48.5333,69.71,80,0,3.02
110,Tacoronte,ES,2023-08-01 17:22:05,28.4769,-16.4102,81.25,79,40,21.85
111,Pyay,MM,2023-08-01 17:22:05,18.8167,95.2167,78.01,94,100,10.8
112,Pangnirtung,CA,2023-08-01 17:22:06,66.1451,-65.7125,51.46,68,80,4.05
113,Thinadhoo,MV,2023-08-01 17:21:27,0.5333,72.9333,83.08,72,41,6.91
114,Pacific Grove,US,2023-08-01 17:22:06,36.6177,-121.9166,62.28,92,100,9.22
115,Grenaa,DK,2023-08-01 17:22:07,56.4158,10.8783,62.82,96,86,15.3
116,Dawson Creek,CA,2023-08-01 17:21:05,55.7666,-120.2362,64.04,63,0,5.75
117,Gravdal,NO,2023-08-01 17:22:07,68.1214,13.5031,66.09,68,0,4.61
118,Kurilsk,RU,2023-08-01 17:22:07,45.2333,147.8833,61.77,86,100,10.29
119,Shakawe,BW,2023-08-01 17:22:08,-18.3667,21.85,59.97,11,0,5.59
120,Buin,CL,2023-08-01 17:19:56,-33.7333,-70.75,83.43,42,0,1.57
121,Chapais,CA,2023-08-01 17:17:45,49.7834,-74.8492,56.98,48,74,6.93
122,Mehamn,NO,2023-08-01 17:22:08,71.0357,27.8492,51.71,100,100,2.3
123,Honiara,SB,2023-08-01 17:17:54,-9.4333,159.95,76.53,91,100,5.26
124,Bowen,AU,2023-08-01 17:22:09,-20.0167,148.2333,66.42,86,12,12.57
125,Ola,RU,2023-08-01 17:22:10,59.5833,151.2833,52.79,81,60,6.49
126,Yelniki,RU,2023-08-01 17:22:10,54.6207,43.876,65.3,86,98,5.39
127,Bykovo,RU,2023-08-01 17:22:10,55.6361,38.0803,74.26,68,0,4.47
128,Svetlogorsk,BY,2023-08-01 17:22:10,52.6333,29.7333,70.48,72,74,6.22
129,Coahuayana,MX,2023-08-01 17:22:11,18.7333,-103.6833,92.23,55,75,2.46
130,College,US,2023-08-01 17:23:11,64.8569,-147.8028,63.46,81,20,4.61
131,Poya,NC,2023-08-01 17:23:11,-21.35,165.15,60.49,82,0,7.9
132,Blagoyevo,RU,2023-08-01 17:23:11,63.3667,47.9167,71.35,72,72,2.44
133,Acapulco,MX,2023-08-01 17:22:13,16.8634,-99.8901,85.82,74,75,5.75
134,Tommot,RU,2023-08-01 17:23:12,58.9564,126.2925,55.22,68,90,4.43
135,Kysyl-Syr,RU,2023-08-01 17:23:12,63.8986,122.7617,52.0,61,4,5.14
136,Vilhena,BR,2023-08-01 17:21:01,-12.7406,-60.1458,91.62,27,20,6.91
137,Bud,US,2023-08-01 17:23:13,39.447,-86.1758,82.4,55,2,7.2
138,Naples,IT,2023-08-01 17:21:51,40.8333,14.25,81.61,71,0,10.36
139,Khani,GE,2023-08-01 17:23:13,41.9563,42.9566,69.37,99,33,0.27
140,Burgeo,CA,2023-08-01 17:23:14,47.6167,-57.6152,66.24,79,36,14.16
141,Sakaiminato,JP,2023-08-01 17:23:14,35.55,133.2333,78.78,89,40,5.75
142,Ugoofaaru,MV,2023-08-01 17:23:14,5.6667,73.0,83.01,75,100,11.32
143,Manggar,ID,2023-08-01 17:23:15,-2.8833,108.2667,81.5,79,8,10.31
144,Saint-Pierre,RE,2023-08-01 17:23:15,-21.3393,55.4781,73.08,78,0,9.22
145,Golyshmanovo,RU,2023-08-01 17:23:15,56.3979,68.3728,65.39,76,72,5.68
146,Miandrivazo,MG,2023-08-01 17:23:15,-19.5167,45.4667,70.86,45,0,1.95
147,Calamar,CO,2023-08-01 17:23:16,10.2511,-74.9146,92.88,53,84,5.66
148,Bay Roberts,CA,2023-08-01 17:23:16,47.5999,-53.2648,71.51,78,100,3.0
149,Ixtapa,MX,2023-08-01 17:23:16,20.7,-105.2,87.22,84,75,1.01
150,Barsi,IN,2023-08-01 17:23:16,18.2333,75.7,75.47,80,100,17.45
151,Phonhong,LA,2023-08-01 17:23:16,18.5007,102.4166,75.54,98,100,0.69
152,Stornoway,GB,2023-08-01 17:23:17,58.2093,-6.3865,61.03,82,20,17.27
153,Mango,US,2023-08-01 17:21:56,27.9797,-82.3065,93.29,73,75,9.22
154,Lazaro Cardenas,MX,2023-08-01 17:23:17,17.9583,-102.2,80.29,87,100,5.66
155,Innisfail,AU,2023-08-01 17:23:17,-17.5333,146.0333,67.17,83,91,11.03
156,Cap Malheureux,MU,2023-08-01 17:23:18,-19.9842,57.6142,71.47,77,17,15.97
157,Altos,BR,2023-08-01 17:23:18,-5.0381,-42.46,93.51,21,3,5.77
158,Huntington,US,2023-08-01 17:23:18,38.4193,-82.4452,82.38,48,0,9.22
159,Atlantic City,US,2023-08-01 17:20:33,39.3643,-74.4229,82.18,62,3,6.91
160,Tazovskiy,RU,2023-08-01 17:23:19,67.4667,78.7,65.28,81,5,9.84
161,Saint Anthony,US,2023-08-01 17:23:19,45.0205,-93.218,85.84,51,0,12.66
162,Alghero,IT,2023-08-01 17:23:19,40.5589,8.3181,80.69,61,40,11.5
163,Kangaatsiaq,GL,2023-08-01 17:23:19,68.3065,-53.4641,38.59,95,100,7.29
164,Rodrigues Alves,BR,2023-08-01 17:23:20,-7.738,-72.6509,93.4,24,6,3.33
165,Nenjiang,CN,2023-08-01 17:23:20,49.1833,125.2167,72.07,89,70,4.52
166,Atyrau,KZ,2023-08-01 17:18:23,47.1167,51.8833,80.62,44,0,8.95
167,Vostok,RU,2023-08-01 17:23:21,46.4856,135.8833,65.86,97,91,5.66
168,Harper,LR,2023-08-01 17:23:21,4.375,-7.7169,78.26,84,93,12.91
169,Vytegra,RU,2023-08-01 17:23:21,61.0064,36.4481,68.7,72,97,4.74
170,Constantine,DZ,2023-08-01 17:23:22,36.365,6.6147,89.01,42,0,11.5
171,Izumo,JP,2023-08-01 17:21:13,35.3667,132.7667,78.75,80,68,4.52
172,Inirida,CO,2023-08-01 17:23:22,3.8653,-67.9239,89.71,55,19,2.24
173,Bubaque,GW,2023-08-01 17:23:22,11.2833,-15.8333,78.8,85,100,9.24
174,Maymyo,MM,2023-08-01 17:23:23,22.0333,96.4667,68.09,98,100,2.3
175,Nurmijarvi,FI,2023-08-01 17:23:23,60.4641,24.8073,65.98,92,40,6.91
176,Garhshankar,IN,2023-08-01 17:23:23,31.2167,76.1333,93.02,60,28,3.58
177,Takoradi,GH,2023-08-01 17:24:24,4.8845,-1.7554,77.23,88,77,11.12
178,Scarborough,GB,2023-08-01 17:24:24,54.2797,-0.4044,61.66,88,73,6.26
179,Marsabit,KE,2023-08-01 17:24:24,2.3284,37.9899,74.44,45,83,18.59
180,Fort Wellington,GY,2023-08-01 17:24:24,6.4,-57.6,85.8,64,15,9.28
181,Paveh,IR,2023-08-01 17:24:25,35.0434,46.3565,79.52,16,0,5.84
182,Neiafu,TO,2023-08-01 17:24:25,-18.65,-173.9833,66.88,94,100,10.36
183,Kashan,IR,2023-08-01 17:24:25,33.9831,51.4364,97.88,9,0,12.53
184,Kaka,TM,2023-08-01 17:24:25,37.3482,59.6143,96.22,16,0,6.87
185,Eganville,CA,2023-08-01 17:24:25,45.5334,-77.0994,69.13,34,58,4.88
186,Matagami,CA,2023-08-01 17:24:26,49.7502,-77.6328,64.51,48,40,8.05
187,Qinzhou,CN,2023-08-01 17:24:26,21.95,108.6167,79.99,91,100,3.74
188,Keetmanshoop,NA,2023-08-01 17:24:26,-26.5833,18.1333,59.92,25,0,6.91
189,Guadalajara,MX,2023-08-01 17:24:26,20.6667,-103.3333,74.97,60,75,0.0
190,Morondava,MG,2023-08-01 17:24:27,-20.2833,44.2833,71.91,81,0,12.88
191,Provideniya,RU,2023-08-01 17:24:27,64.3833,-173.3,49.41,91,99,3.65
192,Woodward,US,2023-08-01 17:24:27,36.4337,-99.3904,99.63,38,0,13.8
193,High Level,CA,2023-08-01 17:24:27,58.5169,-117.136,62.71,88,100,6.91
194,Bathurst,AU,2023-08-01 17:24:28,-33.4166,149.5806,40.82,94,0,4.79
195,Touros,BR,2023-08-01 17:21:09,-5.1989,-35.4608,82.35,67,40,14.67
196,Katherine,AU,2023-08-01 17:24:28,-14.4667,132.2667,62.92,55,75,6.91
197,Pangkalanbuun,ID,2023-08-01 17:24:29,-2.6833,111.6167,77.68,87,97,3.87
198,Clyde River,CA,2023-08-01 17:24:29,70.4692,-68.5914,39.43,93,75,9.22
199,Altay,CN,2023-08-01 17:24:35,47.8667,88.1167,72.34,39,75,6.4
200,Koutsouras,GR,2023-08-01 17:24:35,35.0339,25.9469,87.12,42,0,6.22
201,Kindia,GN,2023-08-01 17:24:30,10.0569,-12.8658,77.68,86,100,1.54
202,Maloy,NO,2023-08-01 17:22:32,61.9353,5.1136,62.33,90,79,8.55
203,Yelabuga,RU,2023-08-01 17:24:36,55.7613,52.0649,67.55,69,85,7.34
204,Nioki,CD,2023-08-01 17:24:36,-2.7167,17.6833,89.73,25,94,1.9
205,Wattegama,LK,2023-08-01 17:20:25,6.7989,81.4808,80.28,64,100,6.6
206,Xiongzhou,CN,2023-08-01 17:24:37,25.1167,114.3,74.98,95,54,1.28
207,Morgan City,US,2023-08-01 17:24:07,29.6994,-91.2068,96.01,55,0,8.05
208,Menongue,AO,2023-08-01 17:24:37,-14.6585,17.691,66.22,15,81,5.95
209,Port Shepstone,ZA,2023-08-01 17:24:42,-30.7414,30.455,62.06,68,1,9.42
210,Teknaf,BD,2023-08-01 17:24:43,20.8624,92.3058,80.73,92,88,16.2
211,Posse,BR,2023-08-01 17:24:43,-14.0931,-46.3694,87.76,20,0,7.58
212,Novikovo,RU,2023-08-01 17:24:43,51.1537,37.8879,66.04,80,98,7.02
213,Itoman,JP,2023-08-01 17:24:43,26.1247,127.6694,80.4,100,100,62.14
214,Prince Albert,CA,2023-08-01 17:20:26,53.2001,-105.7677,73.35,64,75,10.36
215,Nikel,RU,2023-08-01 17:24:44,69.4128,30.222,55.58,90,96,3.15
216,Naze,JP,2023-08-01 17:24:44,28.3667,129.4833,81.52,88,100,32.08
217,Pitmoaga,BF,2023-08-01 17:24:44,12.2397,-1.8767,73.02,52,73,11.32
218,Vavozh,RU,2023-08-01 17:24:44,56.7751,51.931,65.95,84,74,5.03
219,Ishigaki,JP,2023-08-01 17:24:45,24.3448,124.1572,82.53,94,100,19.57
220,Tigil,RU,2023-08-01 17:24:45,57.8,158.6667,50.65,93,100,1.95
221,Kamenka,RU,2023-08-01 17:24:45,51.3223,42.7678,73.85,56,100,7.11
222,Sao Miguel Do Araguaia,BR,2023-08-01 17:23:57,-13.275,-50.1628,96.76,18,0,5.61
223,Albanel,CA,2023-08-01 17:24:45,48.8832,-72.4487,64.38,52,95,10.36
224,Venado Tuerto,AR,2023-08-01 17:24:46,-33.7456,-61.9688,82.76,42,0,13.24
225,Lata,PT,2023-08-01 17:25:46,40.1629,-8.3327,84.49,52,1,12.21
226,Luderitz,NA,2023-08-01 17:25:46,-26.6481,15.1594,63.66,42,0,6.11
227,Bonthe,SL,2023-08-01 17:25:46,7.5264,-12.505,78.8,84,99,12.44
228,Homa Bay,KE,2023-08-01 17:25:47,-0.5273,34.4571,72.79,68,60,2.46
229,Karpogory,RU,2023-08-01 17:25:47,64.0019,44.4451,68.63,92,87,5.99
230,Pietarsaari,FI,2023-08-01 17:25:47,63.65,22.6833,63.0,86,84,9.13
231,Kinablangan,PH,2023-08-01 17:25:47,7.6947,126.5503,77.81,81,96,5.99
232,Bethel,US,2023-08-01 17:25:47,41.3712,-73.414,79.16,48,20,9.22
233,Padang,ID,2023-08-01 17:24:02,-0.9492,100.3543,75.25,96,100,7.74
234,Alexandria,EG,2023-08-01 17:25:48,31.2156,29.9553,84.74,65,0,9.22
235,Leh,IN,2023-08-01 17:25:48,34.1667,77.5833,69.35,34,46,5.68
236,Finschhafen,PG,2023-08-01 17:25:49,-6.6024,147.8681,77.47,88,57,9.31
237,Mirnyy,RU,2023-08-01 17:25:49,62.5353,113.9611,53.24,57,11,1.99
238,Jatibonico,CU,2023-08-01 17:25:49,21.9419,-79.17,92.25,49,14,6.76
239,Fougamou,GA,2023-08-01 17:25:49,-1.2154,10.5838,88.41,44,78,3.53
240,Hirara,JP,2023-08-01 17:25:50,24.8,125.2833,82.67,94,75,37.98
241,Mangan,IN,2023-08-01 17:25:50,27.5167,88.5333,79.29,94,94,1.66
242,Vagur,FO,2023-08-01 17:25:50,61.4732,-6.8119,50.77,86,100,16.71
243,Broken Hill,AU,2023-08-01 17:25:50,-31.95,141.4333,49.91,72,0,7.18
244,Kaitangata,NZ,2023-08-01 17:25:50,-46.2817,169.8464,41.74,75,96,20.6
245,Kargil,IN,2023-08-01 17:25:51,34.5667,76.1,61.88,51,64,5.86
246,Serchhip,IN,2023-08-01 17:25:51,23.3,92.8333,70.12,99,87,2.1
247,Talaya,RU,2023-08-01 17:25:51,61.3833,152.75,47.95,88,98,2.84
248,Sechura,PE,2023-08-01 17:25:51,-5.5569,-80.8222,79.97,58,50,8.43
249,Rajgarh,IN,2023-08-01 17:25:51,28.6333,75.3833,92.64,51,29,14.72
250,Asosa,ET,2023-08-01 17:25:52,10.0667,34.5333,60.75,98,88,1.79
251,Tame,CO,2023-08-01 17:25:52,6.461,-71.73,84.87,63,59,6.02
252,Camopi,GF,2023-08-01 17:25:52,3.1655,-52.3158,80.76,77,78,2.01
253,Twentynine Palms,US,2023-08-01 17:25:52,34.1356,-116.0542,94.14,34,85,3.0
254,Aripuana,BR,2023-08-01 17:21:44,-9.1667,-60.6333,99.88,21,12,3.85
255,Sarnia,CA,2023-08-01 17:23:47,42.9787,-82.4041,73.94,56,0,4.61
256,Suntar,RU,2023-08-01 17:25:53,62.1444,117.6319,51.37,70,17,2.37
257,Kommunisticheskiy,RU,2023-08-01 17:25:53,61.6789,64.4819,63.43,70,96,2.91
258,Caravelas,BR,2023-08-01 17:25:53,-17.7125,-39.2481,74.8,64,39,7.09
259,Zhanakorgan,KZ,2023-08-01 17:25:54,43.9098,67.2495,85.32,33,46,4.54
260,Anan,JP,2023-08-01 17:25:54,33.9167,134.65,80.38,91,17,9.78
261,Chenghai,CN,2023-08-01 17:25:54,23.4632,116.768,78.71,94,29,2.24
262,Beyneu,KZ,2023-08-01 17:25:54,45.3167,55.2,89.06,17,0,9.04
263,Kirillov,RU,2023-08-01 17:25:55,59.863,38.3813,67.68,72,99,3.4
264,Abha,SA,2023-08-01 17:21:55,18.2164,42.5053,76.82,50,20,6.91
265,Hokitika,NZ,2023-08-01 17:25:55,-42.7167,170.9667,46.22,79,100,14.03
266,Luau,AO,2023-08-01 17:25:55,-10.7073,22.2247,75.43,17,22,3.89
267,Avera,US,2023-08-01 17:25:55,33.194,-82.5271,91.9,44,1,7.11
268,Batangafo,CF,2023-08-01 17:25:56,7.3008,18.2833,71.01,96,100,3.78
269,Peleduy,RU,2023-08-01 17:25:56,59.6289,112.7406,54.99,66,98,5.3
270,Saldanha,ZA,2023-08-01 17:25:56,-33.0117,17.9442,50.05,74,48,10.2
271,Oussouye,SN,2023-08-01 17:25:56,12.485,-16.5469,77.18,84,99,5.99
272,Saint-Georges,GD,2023-08-01 17:26:57,12.0564,-61.7485,85.57,67,2,11.81
273,El Tigre,VE,2023-08-01 17:26:57,8.8875,-64.2454,89.28,47,23,8.99
274,Maniitsoq,GL,2023-08-01 17:26:57,65.4167,-52.9,42.71,87,97,0.49
275,Cuencame,MX,2023-08-01 17:26:58,24.8711,-103.6964,82.26,38,63,5.97
276,Dolores,AR,2023-08-01 17:26:58,-36.3132,-57.6792,74.37,65,0,9.86
277,Labuhan,ID,2023-08-01 17:26:58,-6.8844,112.2051,76.91,83,60,9.04
278,Outjo,NA,2023-08-01 17:26:58,-20.1167,16.15,61.93,8,0,9.26
279,Berlevag,NO,2023-08-01 17:26:59,70.8578,29.0864,57.0,93,100,3.44
280,San Quintin,MX,2023-08-01 17:26:59,30.4833,-115.95,76.73,60,36,5.59
281,Pilar,BR,2023-08-01 17:26:31,-9.5972,-35.9567,80.53,74,43,8.25
282,Liberec,CZ,2023-08-01 17:26:59,50.7671,15.0562,67.59,83,100,1.99
283,Guarapari,BR,2023-08-01 17:27:00,-20.6667,-40.4975,72.9,72,43,7.81
284,Fonte Boa,BR,2023-08-01 17:27:00,-2.4959,-66.2662,95.11,40,5,2.89
285,Jerico,CO,2023-08-01 17:27:00,5.7921,-75.786,76.78,46,43,2.24
286,Aswan,EG,2023-08-01 17:27:00,24.0934,32.907,103.3,16,0,9.22
287,Mayo,US,2023-08-01 17:27:00,38.8876,-76.5119,81.5,57,0,8.05
288,El Ocotito,MX,2023-08-01 17:27:01,17.25,-99.5667,76.05,87,100,0.67
289,Machaneng,BW,2023-08-01 17:27:01,-23.1862,27.4886,63.23,26,0,11.68
290,Chicama,PE,2023-08-01 17:27:01,-7.8447,-79.1469,73.94,60,41,9.78
