City_ID,City,Country,Date,Lat,Lng,Max Temp,Humidity,Cloudiness,Wind Speed
0,Ushuaia,AR,2023-08-01 00:02:49,-54.8,-68.3,35.26,87,75,12.66
1,Puerto Ayora,EC,2023-08-01 00:02:52,-0.7393,-90.3518,76.55,93,76,3.0
2,Vaini,TO,2023-08-01 00:02:53,-21.2,-175.2,69.96,68,100,12.66
3,Rikitea,PF,2023-08-01 00:02:54,-23.1203,-134.9692,71.06,64,62,21.77
4,Alekseyevka,RU,2023-08-01 00:11:58,50.6309,38.6903,66.27,80,79,2.51
5,Hobart,AU,2023-08-01 00:01:45,-42.8794,147.3294,51.66,64,75,17.27
6,Beringovskiy,RU,2023-08-01 00:11:30,63.05,179.3167,54.05,81,94,7.83
7,Los Llanos De Aridane,ES,2023-08-01 00:11:59,28.6585,-17.9182,73.13,75,0,16.11
8,Mataura,NZ,2023-08-01 00:02:46,-46.1927,168.8643,46.47,77,59,9.46
9,Salalah,OM,2023-08-01 00:11:59,17.0151,54.0924,78.89,94,100,8.05
10,Nikolskoye,RU,2023-08-01 00:07:56,59.7035,30.7861,61.81,95,11,3.13
11,Kargasok,RU,2023-08-01 00:02:45,59.0556,80.8572,63.12,96,100,2.59
12,Haines Junction,CA,2023-08-01 00:11:29,60.7522,-137.5108,62.55,82,100,5.75
13,Kiruna,SE,2023-08-01 00:12:00,67.8557,20.2251,52.72,87,100,3.44
14,Ambunti,PG,2023-08-01 00:12:00,-4.2365,142.8448,85.66,73,52,1.86
15,Tabou,CI,2023-08-01 00:06:41,4.423,-7.3528,75.45,92,94,8.75
16,Lazaro Cardenas,MX,2023-08-01 00:12:00,17.9583,-102.2,87.01,68,83,5.97
17,Shahrud,IR,2023-08-01 00:12:01,36.4182,54.9763,74.25,42,1,4.18
18,Thompson,CA,2023-08-01 00:03:59,55.7435,-97.8558,78.96,44,100,6.91
19,Brownsville,US,2023-08-01 00:12:01,25.9018,-97.4975,94.08,63,0,17.27
20,Ler,SS,2023-08-01 00:12:01,8.3018,30.1418,70.79,97,99,4.7
21,Hilo,US,2023-08-01 00:03:59,19.7297,-155.09,87.28,77,39,4.0
22,Ilulissat,GL,2023-08-01 00:07:53,69.2167,-51.1,42.82,93,75,3.44
23,Aksarka,RU,2023-08-01 00:12:02,66.5606,67.7975,56.32,86,50,5.17
24,Zhigansk,RU,2023-08-01 00:12:02,66.7697,123.3711,55.27,54,0,13.8
25,Atikokan,CA,2023-08-01 00:12:03,48.7555,-91.6216,77.85,36,32,7.31
26,Sungaipenuh,ID,2023-08-01 00:12:03,-2.0833,101.3833,63.25,94,50,3.24
27,Bud,US,2023-08-01 00:06:39,39.447,-86.1758,77.14,53,3,6.96
28,Punta Arenas,CL,2023-08-01 00:02:47,-53.15,-70.9167,33.12,98,100,5.99
29,Praia,CV,2023-08-01 00:10:41,14.9215,-23.5087,81.14,83,40,5.75
30,East London,ZA,2023-08-01 00:05:27,-33.0153,27.9116,56.52,60,47,21.61
31,Iqaluit,CA,2023-08-01 00:04:18,63.7506,-68.5145,47.93,81,75,2.3
32,Hearst,CA,2023-08-01 00:12:04,49.6835,-83.6665,68.25,54,82,2.46
33,Bredasdorp,ZA,2023-08-01 00:02:51,-34.5322,20.0403,45.99,82,47,4.16
34,Beloha,MG,2023-08-01 00:06:43,-25.1667,45.05,60.84,92,51,4.72
35,Grindavik,IS,2023-08-01 00:12:05,63.8424,-22.4338,49.95,100,100,9.22
36,Albany,US,2023-07-31 23:58:00,42.6001,-73.9662,68.41,85,32,1.01
37,Tiksi,RU,2023-08-01 00:02:50,71.6872,128.8694,42.48,86,74,4.72
38,Meulaboh,ID,2023-08-01 00:07:22,4.1363,96.1285,76.39,91,100,4.32
39,Ponta Do Sol,PT,2023-08-01 00:02:43,32.6667,-17.1,75.83,81,0,6.04
40,Ardalstangen,NO,2023-08-01 00:12:06,61.2371,7.6983,57.69,82,90,5.1
41,Washington,US,2023-08-01 00:12:06,47.5001,-120.5015,89.47,18,0,4.47
42,Reo,BF,2023-08-01 00:12:06,12.3167,-2.4667,77.23,84,99,10.8
43,Caravelas,BR,2023-08-01 00:10:14,-17.7125,-39.2481,70.93,73,100,5.26
44,Chuy,UY,2023-08-01 00:06:13,-33.6971,-53.4616,52.99,84,100,6.15
45,Noumea,NC,2023-08-01 00:12:07,-22.2763,166.4572,73.38,99,15,14.7
46,Lewistown,US,2023-08-01 00:12:07,40.5992,-77.5714,74.71,53,0,6.91
47,Tilichiki,RU,2023-08-01 00:06:42,60.4667,166.1,58.53,55,100,4.92
48,Port Elizabeth,ZA,2023-08-01 00:02:36,-33.918,25.5701,52.11,87,40,18.41
49,Kapaa,US,2023-08-01 00:13:08,22.0752,-159.319,87.78,78,20,17.27
50,Kazachka,RU,2023-08-01 00:13:08,53.3644,38.0694,62.53,90,86,5.82
51,Yerbogachen,RU,2023-08-01 00:13:10,61.2767,108.0108,60.67,79,11,8.68
52,Comodoro Rivadavia,AR,2023-08-01 00:08:43,-45.8667,-67.5,60.66,44,0,37.98
53,Najran,SA,2023-08-01 00:13:10,17.4924,44.1277,83.03,26,84,2.98
54,Lar,IN,2023-08-01 00:13:10,26.2039,83.9717,89.83,62,100,3.15
55,Labuhan,ID,2023-08-01 00:13:11,-6.8844,112.2051,75.42,81,48,7.45
56,Veraval,IN,2023-08-01 00:13:11,20.9,70.3667,80.53,88,99,19.73
57,Longyearbyen,SJ,2023-08-01 00:04:15,78.2186,15.6401,46.24,76,75,6.91
58,Muros,ES,2023-08-01 00:13:11,42.7762,-9.0603,68.16,93,56,5.77
59,Namibe,AO,2023-08-01 00:13:12,-15.1961,12.1522,62.17,78,41,8.84
60,Coari,BR,2023-08-01 00:13:12,-4.085,-63.1414,78.01,77,88,2.04
61,Augusto Correa,BR,2023-08-01 00:13:12,-1.0217,-46.635,76.19,87,10,3.56
62,Kaitangata,NZ,2023-08-01 00:07:49,-46.2817,169.8464,48.69,57,51,6.11
63,Carnarvon,AU,2023-08-01 00:04:17,-24.8667,113.6333,64.17,31,0,7.02
64,Salta,AR,2023-08-01 00:13:13,-24.7859,-65.4117,64.99,66,0,5.75
65,Pak Phanang,TH,2023-08-01 00:13:13,8.3511,100.202,80.51,80,100,8.86
66,Kruisfontein,ZA,2023-08-01 00:04:16,-34.0033,24.7314,49.89,80,97,13.76
67,Fairbanks,US,2023-08-01 00:12:37,64.8378,-147.7164,76.23,55,75,0.0
68,Busselton,AU,2023-08-01 00:04:00,-33.65,115.3333,57.43,83,46,11.88
69,Puerto Escondido,MX,2023-08-01 00:13:14,15.85,-97.0667,88.63,58,100,6.91
70,Forio,IT,2023-08-01 00:13:14,40.7342,13.8646,79.09,89,0,1.01
71,Ewo,CG,2023-08-01 00:04:00,-0.8725,14.8206,80.11,62,94,6.33
72,Longyan,CN,2023-08-01 00:13:15,25.1072,117.0225,74.16,97,100,1.03
73,Barrow,US,2023-08-01 00:06:37,71.2906,-156.7887,60.82,63,0,14.97
74,Arraial Do Cabo,BR,2023-08-01 00:00:37,-22.9661,-42.0278,62.56,94,40,4.61
75,Cape Town,ZA,2023-08-01 00:12:12,-33.9258,18.4232,53.38,76,20,4.61
76,Winnipeg,CA,2023-08-01 00:08:59,49.8844,-97.147,87.87,18,43,4.07
77,Hervey Bay,AU,2023-08-01 00:13:16,-25.2986,152.8535,66.88,73,14,0.78
78,Barra Do Garcas,BR,2023-08-01 00:13:16,-15.89,-52.2567,77.49,35,8,2.04
79,Yellowknife,CA,2023-07-31 23:59:20,62.456,-114.3525,72.12,56,100,13.8
80,Luderitz,NA,2023-08-01 00:13:16,-26.6481,15.1594,58.39,40,0,9.51
81,Jamestown,US,2023-08-01 00:04:15,42.097,-79.2353,65.71,87,100,3.44
82,Kualakapuas,ID,2023-08-01 00:13:17,-3.0091,114.3876,78.17,80,5,4.21
83,Severo-Kurilsk,RU,2023-08-01 00:13:17,50.6789,156.125,52.0,92,100,6.85
84,Hambantota,LK,2023-08-01 00:13:17,6.1241,81.1185,79.81,81,100,18.5
85,Atuona,PF,2023-08-01 00:05:31,-9.8,-139.0333,78.46,85,53,27.49
86,Hovd,MN,2023-08-01 00:13:05,48.0056,91.6419,65.16,73,37,0.96
87,Sitka,US,2023-08-01 00:09:19,57.0531,-135.33,62.49,72,100,4.61
88,Camapua,BR,2023-08-01 00:13:18,-19.5314,-54.0439,73.53,42,0,7.61
89,Cabo San Lucas,MX,2023-08-01 00:05:21,22.8909,-109.9124,95.61,51,0,5.75
90,Alexandria,EG,2023-08-01 00:11:28,31.2156,29.9553,79.95,62,0,9.19
91,Cherskiy,RU,2023-08-01 00:05:31,68.75,161.3,42.85,85,97,7.31
92,Flin Flon,CA,2023-08-01 00:13:19,54.7682,-101.865,82.33,32,99,2.04
93,Pirenopolis,BR,2023-08-01 00:14:20,-15.8525,-48.9592,72.09,41,32,5.93
94,Kautokeino,NO,2023-08-01 00:14:20,69.0125,23.0412,50.77,92,87,7.05
95,Sao Gabriel Da Cachoeira,BR,2023-08-01 00:09:48,-0.1303,-67.0892,72.97,97,55,1.12
96,Laguna De Perlas,NI,2023-08-01 00:14:21,12.3429,-83.6712,81.19,86,63,10.45
97,Dawei,MM,2023-08-01 00:14:21,14.0833,98.2,78.21,94,99,7.49
98,High Level,CA,2023-08-01 00:10:11,58.5169,-117.136,62.71,94,100,2.3
99,Te Anau,NZ,2023-08-01 00:07:51,-45.4167,167.7167,41.31,93,81,8.03
100,Hermanus,ZA,2023-08-01 00:05:25,-34.4187,19.2345,45.81,73,33,4.27
101,Remetea Chioarului,RO,2023-08-01 00:14:22,47.5333,23.55,62.96,94,11,5.75
102,Mantua,IT,2023-08-01 00:14:22,45.1667,10.7833,76.24,84,59,3.0
103,Khatanga,RU,2023-08-01 00:14:23,71.9667,102.5,62.17,59,38,5.48
104,Tromso,NO,2023-08-01 00:09:49,69.6496,18.957,60.39,82,55,3.44
105,Kindu,CD,2023-08-01 00:14:23,-2.95,25.95,71.29,48,68,2.73
106,Pangnirtung,CA,2023-08-01 00:14:23,66.1451,-65.7125,53.13,61,99,2.24
107,Tasiilaq,GL,2023-08-01 00:05:30,65.6145,-37.6368,39.36,81,20,4.47
108,Avarua,CK,2023-08-01 00:10:04,-21.2078,-159.775,80.65,89,27,6.91
109,Korla,CN,2023-08-01 00:11:00,41.7597,86.1469,78.44,45,27,1.79
110,Marawi,PH,2023-08-01 00:09:08,7.9986,124.2928,76.5,66,76,5.61
111,Provideniya,RU,2023-08-01 00:05:32,64.3833,-173.3,50.36,93,75,13.42
112,Mahebourg,MU,2023-08-01 00:14:25,-20.4081,57.7,73.69,78,75,10.36
113,Ternate,ID,2023-08-01 00:14:25,0.8,127.4,81.64,78,70,4.52
114,Aklavik,CA,2023-08-01 00:14:25,68.2191,-135.0107,76.91,45,16,6.33
115,Mareeba,AU,2023-08-01 00:14:25,-17.0,145.4333,70.45,78,21,6.42
116,Kamiiso,JP,2023-08-01 00:14:26,41.8167,140.65,77.38,88,40,8.05
117,Hasaki,JP,2023-08-01 00:14:26,35.7333,140.8333,86.29,82,100,5.59
118,Kavieng,PG,2023-08-01 00:06:41,-2.5744,150.7967,82.49,74,96,8.37
119,Harper,LR,2023-08-01 00:10:17,4.375,-7.7169,76.01,90,97,9.62
120,Kimbe,PG,2023-08-01 00:14:27,-5.5502,150.1429,87.4,62,65,7.49
121,Hobyo,SO,2023-08-01 00:07:00,5.3505,48.5268,77.02,81,85,23.35
122,Sao Jose Da Coroa Grande,BR,2023-08-01 00:09:53,-8.8978,-35.1478,74.12,86,10,6.49
123,Lebu,CL,2023-08-01 00:02:36,-37.6167,-73.65,55.06,96,100,12.48
124,Nanortalik,GL,2023-08-01 00:14:27,60.1432,-45.2371,41.22,92,89,5.88
125,Novopokrovka,UA,2023-08-01 00:14:28,49.8425,36.5477,65.97,84,91,1.68
126,Yar-Sale,RU,2023-08-01 00:14:28,66.8333,70.8333,56.35,87,25,6.17
127,Acapulco,MX,2023-08-01 00:10:50,16.8634,-99.8901,87.62,70,75,6.91
128,New Norfolk,AU,2023-08-01 00:14:28,-42.7826,147.0587,51.3,81,90,9.95
129,Dikson,RU,2023-08-01 00:14:28,73.5069,80.5464,42.82,81,19,8.93
130,Airai,TL,2023-08-01 00:07:49,-8.9266,125.4092,64.36,57,25,5.23
131,Rawson,AR,2023-08-01 00:10:18,-43.3002,-65.1023,65.01,39,65,28.1
132,Mahon,ES,2023-08-01 00:14:29,39.8885,4.2658,79.36,78,75,5.75
133,Hithadhoo,MV,2023-08-01 00:05:32,-0.6,73.0833,82.26,72,83,2.26
134,Brumado,BR,2023-08-01 00:14:30,-14.2036,-41.6653,71.96,63,94,6.22
135,Grand Gaube,MU,2023-08-01 00:14:30,-20.0064,57.6608,73.8,73,27,5.01
136,Agua Verde,MX,2023-08-01 00:14:30,22.9,-106.05,91.49,69,31,8.88
137,Kyaikto,MM,2023-08-01 00:15:31,17.3,97.0167,79.74,90,99,13.65
138,Norman Wells,CA,2023-08-01 00:15:31,65.282,-126.8329,78.84,36,20,5.75
139,Port Lincoln,AU,2023-08-01 00:15:31,-34.7333,135.8667,56.19,75,0,4.0
140,Mogadishu,SO,2023-08-01 00:15:32,2.0371,45.3438,76.14,87,94,14.23
141,Podyuga,RU,2023-08-01 00:15:32,61.095,40.8647,56.35,99,88,4.14
142,Kondinskoye,RU,2023-08-01 00:15:32,59.6481,67.41,59.77,96,100,4.79
143,Goderich,CA,2023-08-01 00:15:32,43.7501,-81.7165,69.91,68,0,5.75
144,Golaghat,IN,2023-08-01 00:15:33,26.5167,93.9667,78.71,97,100,4.05
145,Butaritari,KI,2023-08-01 00:15:22,3.0707,172.7902,79.02,86,100,12.39
146,Uchaly,RU,2023-08-01 00:15:33,54.2996,59.4521,59.59,88,98,3.13
147,Qaanaaq,GL,2023-08-01 00:15:22,77.484,-69.3632,39.38,81,76,2.1
148,Suzun,RU,2023-08-01 00:15:34,53.7841,82.3116,67.3,68,64,1.54
149,Mount Isa,AU,2023-08-01 00:15:34,-20.7333,139.5,73.17,40,90,12.66
150,Saint George,US,2023-08-01 00:11:00,37.1041,-113.5841,95.59,28,0,16.11
151,Luganville,VU,2023-08-01 00:15:34,-15.5333,167.1667,75.69,71,43,14.0
152,Abastumani,GE,2023-08-01 00:15:35,41.7075,42.8457,58.46,91,28,0.69
153,Leningradskiy,RU,2023-08-01 00:15:35,69.3833,178.4167,37.38,96,100,5.28
154,Ban Nahin,LA,2023-08-01 00:15:35,18.2418,104.2122,76.01,99,100,1.61
155,Codrington,AU,2023-08-01 00:15:35,-38.2667,141.9667,53.35,79,89,8.57
156,Voznesenye,RU,2023-08-01 00:15:36,61.0106,35.4781,57.36,89,14,1.97
157,Bethel,US,2023-08-01 00:15:36,41.3712,-73.414,74.75,67,75,3.44
158,Yeppoon,AU,2023-08-01 00:15:36,-23.1333,150.7333,76.24,72,16,7.14
159,Virovitica,HR,2023-08-01 00:15:37,45.8319,17.3839,63.14,70,55,2.89
160,Klaksvik,FO,2023-08-01 00:10:57,62.2266,-6.589,54.52,89,100,11.97
161,Vendome,FR,2023-08-01 00:15:37,47.8,1.0667,64.69,97,100,19.53
162,Ajdabiya,LY,2023-08-01 00:15:37,30.7554,20.2263,78.21,81,0,10.54
163,Georgetown,MY,2023-08-01 00:06:34,5.4112,100.3354,82.33,89,40,8.05
164,Kushmurun,KZ,2023-08-01 00:15:38,52.4503,64.6311,68.63,60,1,6.8
165,Cidreira,BR,2023-08-01 00:15:38,-30.1811,-50.2056,59.94,85,26,3.85
166,Alofi,NU,2023-08-01 00:10:58,-19.0595,-169.9187,73.6,86,99,21.79
167,Castro,BR,2023-08-01 00:15:39,-24.7911,-50.0119,54.9,81,0,0.16
168,Victoria,HK,2023-08-01 00:08:57,22.2855,114.1577,87.44,81,100,5.99
169,Kaeo,NZ,2023-08-01 00:15:39,-35.1,173.7833,63.32,80,31,6.82
170,Coahuayana,MX,2023-08-01 00:15:39,18.7333,-103.6833,85.75,70,95,3.09
171,Okha,RU,2023-08-01 00:15:39,53.5739,142.9478,58.12,90,100,14.12
172,Saint-Philippe,RE,2023-08-01 00:15:40,-21.3585,55.7679,67.59,82,39,11.1
173,Dingle,PH,2023-08-01 00:15:40,10.9995,122.6711,81.52,81,100,10.6
174,Ola,RU,2023-08-01 00:07:25,59.5833,151.2833,61.14,88,100,7.78
175,Tsiroanomandidy,MG,2023-08-01 00:15:40,-18.7667,46.0333,61.32,52,61,1.72
176,Iberia,US,2023-08-01 00:15:40,29.9502,-91.7507,91.4,52,0,5.75
177,Port Hardy,CA,2023-08-01 00:15:41,50.6996,-127.4199,62.78,88,75,5.75
178,Ribeira Grande,PT,2023-08-01 00:15:41,38.5167,-28.7,74.77,93,13,1.01
179,Roma,US,2023-08-01 00:15:41,43.2128,-75.4557,66.81,63,75,5.75
180,Souillac,MU,2023-08-01 00:15:41,-20.5167,57.5167,73.78,78,75,10.36
181,Ahipara,NZ,2023-08-01 00:15:41,-35.1667,173.1667,60.82,70,21,8.3
182,Sao Filipe,CV,2023-08-01 00:15:42,14.8961,-24.4956,78.49,85,68,1.95
183,Mangla,PK,2023-08-01 00:15:42,31.8931,72.3817,91.17,48,2,5.37
184,Akonolinga,CM,2023-08-01 00:17:43,3.7667,12.25,68.56,98,92,4.07
185,Gualaquiza,EC,2023-08-01 00:17:44,-3.4,-78.55,62.8,93,64,1.39
186,Tessalit,ML,2023-08-01 00:17:44,20.1986,1.0114,96.71,8,1,9.8
187,Quatre Cocos,MU,2023-08-01 00:17:44,-20.2078,57.7625,73.51,74,29,15.19
188,Uruzgan,AF,2023-08-01 00:17:44,32.8333,66.0,74.44,19,0,7.38
189,Boyolangu,ID,2023-08-01 00:17:45,-8.1181,111.8935,72.59,87,66,1.97
190,Bokhan,RU,2023-08-01 00:17:45,53.153,103.7714,69.76,74,100,3.47
191,Zyryanka,RU,2023-08-01 00:17:45,65.75,150.85,53.58,64,64,11.65
192,San Juan,AR,2023-08-01 00:17:45,-31.5375,-68.5364,65.89,30,1,5.97
193,Bluff,NZ,2023-08-01 00:17:45,-46.6,168.3333,46.8,82,68,27.27
194,Lorengau,PG,2023-08-01 00:17:46,-2.0226,147.2712,84.16,77,91,7.27
195,Mar Del Plata,AR,2023-08-01 00:16:24,-38.0023,-57.5575,54.95,83,0,8.05
196,Borcea,RO,2023-08-01 00:17:46,44.3333,27.75,68.9,91,33,2.77
197,Jalu,LY,2023-08-01 00:17:46,29.0331,21.5482,83.23,41,0,16.71
198,Whitehorse,CA,2023-08-01 00:17:46,60.7161,-135.0538,65.8,88,75,6.91
199,Havre-Saint-Pierre,CA,2023-08-01 00:17:47,50.2334,-63.5986,61.16,88,100,3.44
200,Maneadero,MX,2023-08-01 00:17:47,31.7167,-116.5667,76.1,73,94,1.99
201,Bengkulu,ID,2023-08-01 00:17:48,-3.8004,102.2655,74.35,80,59,4.25
202,Atar,MR,2023-08-01 00:17:48,20.5169,-13.0499,91.81,30,8,6.85
203,Constitucion,CL,2023-08-01 00:17:48,-35.3333,-72.4167,54.23,92,76,1.25
204,Isangel,VU,2023-08-01 00:17:48,-19.55,169.2667,75.31,57,40,11.5
205,Belaya Gora,RU,2023-08-01 00:17:49,68.5333,146.4167,54.48,56,65,7.09
206,Bubaque,GW,2023-08-01 00:17:50,11.2833,-15.8333,80.83,81,100,15.21
207,Cayenne,GF,2023-08-01 00:17:51,4.9333,-52.3333,78.84,89,0,0.0
208,Aras,ES,2023-08-01 00:17:56,42.5617,-2.356,66.61,46,0,5.75
209,San Buenaventura,MX,2023-08-01 00:17:57,27.0833,-101.5333,100.06,23,21,20.2
210,Ouadda,CF,2023-08-01 00:17:57,8.0777,22.4007,69.22,97,100,4.5
211,Peniche,PT,2023-08-01 00:17:57,39.3558,-9.3811,70.29,94,11,13.94
212,Lavrentiya,RU,2023-08-01 00:17:58,65.5833,-171.0,49.5,85,83,6.42
213,Guerrero Negro,MX,2023-08-01 00:17:58,27.9769,-114.0611,80.94,51,15,14.41
214,Kirensk,RU,2023-08-01 00:17:58,57.7853,108.1119,67.14,84,5,3.44
215,Alice Springs,AU,2023-08-01 00:17:59,-23.7,133.8833,62.15,42,0,12.66
216,Umm Lajj,SA,2023-08-01 00:17:17,25.0213,37.2685,86.36,57,7,2.59
217,Saint-Louis,SN,2023-08-01 00:17:59,16.3333,-15.0,84.58,68,69,13.47
218,Vikhorevka,RU,2023-08-01 00:17:59,56.1201,101.1636,71.19,73,79,0.65
219,Upernavik,GL,2023-08-01 00:18:00,72.7868,-56.1549,40.24,74,69,10.07
220,Suwalki,PL,2023-08-01 00:18:00,54.1118,22.9309,57.96,76,72,7.4
221,Mehamn,NO,2023-08-01 00:18:00,71.0357,27.8492,46.35,100,20,8.05
222,San Quintin,MX,2023-08-01 00:18:01,30.4833,-115.95,75.92,64,73,5.97
223,Portland,US,2023-08-01 00:13:48,45.5234,-122.6762,86.67,34,0,9.22
224,Melita,CA,2023-08-01 00:18:01,49.2681,-100.9967,76.53,38,39,7.52
225,Matamoros,MX,2023-08-01 00:18:01,25.5333,-103.25,96.91,30,75,6.91
226,Lagoa,PT,2023-08-01 00:18:02,39.05,-27.9833,73.87,93,0,9.95
227,Pacific Grove,US,2023-08-01 00:18:11,36.6177,-121.9166,81.39,81,0,9.22
228,Kavaratti,IN,2023-08-01 00:19:02,10.5669,72.642,82.71,74,100,18.54
229,El Paso,US,2023-08-01 00:15:02,31.8001,-106.2005,98.26,20,75,10.36
230,Omboue,GA,2023-08-01 00:19:03,-1.5746,9.2618,71.67,85,95,9.66
231,Touros,BR,2023-08-01 00:19:03,-5.1989,-35.4608,76.82,80,35,17.43
232,Great Yarmouth,GB,2023-08-01 00:19:04,52.6083,1.7305,60.42,86,69,13.85
233,Buchanan,LR,2023-08-01 00:19:04,5.8808,-10.0467,76.64,89,100,7.16
234,San Cristobal,VE,2023-08-01 00:19:04,7.7669,-72.225,78.98,96,65,4.63
235,Booue,GA,2023-08-01 00:19:04,-0.0921,11.9385,75.38,74,78,2.77
236,Bondo,CD,2023-08-01 00:19:05,3.8146,23.6866,70.12,99,100,3.62
237,Hami,CN,2023-08-01 00:19:05,42.8,93.45,74.97,49,95,3.09
238,Morehead,US,2023-08-01 00:19:05,37.2711,-87.1764,78.78,64,0,3.44
239,Hammerfest,NO,2023-08-01 00:19:05,70.6634,23.6821,57.65,77,20,10.36
240,Sorland,NO,2023-08-01 00:19:06,67.667,12.6934,58.86,78,18,13.35
241,Bangassou,CF,2023-08-01 00:19:06,4.7413,22.8184,69.31,99,100,4.07
242,Tezu,IN,2023-08-01 00:19:06,27.9167,96.1667,79.45,89,95,4.14
243,Palmer,US,2023-08-01 00:18:27,42.1584,-72.3287,71.85,72,75,9.22
244,Kangavar,IR,2023-08-01 00:19:07,34.5043,47.9653,72.57,17,16,3.2
245,Kiama,AU,2023-08-01 00:19:07,-34.6833,150.8667,66.58,50,0,8.99
246,Taoudenni,ML,2023-08-01 00:19:08,22.6783,-3.9836,101.98,9,0,8.55
247,Praia Da Vitoria,PT,2023-08-01 00:19:09,38.7333,-27.0667,75.76,94,20,4.72
248,Wilmington Island,US,2023-08-01 00:19:09,32.0036,-80.9737,84.29,80,0,5.75
249,Port Alfred,ZA,2023-08-01 00:19:10,-33.5906,26.891,52.18,78,91,8.99
250,Ranong,TH,2023-08-01 00:19:10,9.9658,98.6348,80.53,88,93,10.96
251,Chokurdakh,RU,2023-08-01 00:19:11,70.6333,147.9167,46.72,70,87,8.37
252,Sokolo,ML,2023-08-01 00:19:12,14.7328,-6.1219,75.38,76,86,21.39
253,Gouyave,GD,2023-08-01 00:19:12,12.1646,-61.7296,83.17,84,20,12.66
254,Novaya Bryan,RU,2023-08-01 00:19:12,51.7159,108.2691,75.72,55,46,1.66
255,Sao Paulo De Olivenca,BR,2023-08-01 00:19:13,-3.3783,-68.8725,80.33,66,97,1.5
256,Port Hedland,AU,2023-08-01 00:15:23,-20.3167,118.5667,77.05,23,40,11.5
257,Avera,US,2023-08-01 00:19:13,33.194,-82.5271,89.65,46,46,1.28
258,Tengzhou,CN,2023-08-01 00:19:13,35.0771,117.1518,79.52,81,18,14.14
259,Sinnamary,GF,2023-08-01 00:19:14,5.3833,-52.95,78.13,86,5,7.92
260,Salvador,SV,2023-08-01 00:19:14,13.8333,-88.9167,81.0,87,30,0.07
261,Alyangula,AU,2023-08-01 00:19:15,-13.8483,136.4192,77.43,63,49,14.09
262,Leh,IN,2023-08-01 00:19:15,34.1667,77.5833,61.02,51,13,4.25
263,Mbanza-Ngungu,CD,2023-08-01 00:19:15,-5.25,14.8667,69.31,68,93,7.14
264,Puerto Leguizamo,CO,2023-08-01 00:19:15,-0.1934,-74.7819,70.9,98,96,2.68
265,Oka,CA,2023-08-01 00:19:16,45.4649,-74.0889,68.22,57,42,5.75
266,Murray Bridge,AU,2023-08-01 00:19:16,-35.1167,139.2667,57.13,67,0,3.0
267,Ponta Delgada,PT,2023-08-01 00:19:16,37.7333,-25.6667,72.32,94,20,1.14
268,College,US,2023-08-01 00:19:16,64.8569,-147.8028,76.21,55,75,1.01
269,Maxixe,MZ,2023-08-01 00:19:17,-23.8597,35.3472,63.5,76,9,6.22
270,Balabac,PH,2023-08-01 00:19:17,7.9868,117.0645,84.06,73,78,7.2
271,Acarau,BR,2023-08-01 00:19:17,-2.8856,-40.12,78.3,81,4,14.85
272,Mashhad,IR,2023-08-01 00:20:17,36.297,59.6062,73.54,46,0,0.0
273,Miram Shah,PK,2023-08-01 00:20:17,33.0086,70.0697,83.86,57,2,1.5
274,Maceio,BR,2023-08-01 00:20:18,-9.6658,-35.7353,74.64,88,20,4.61
275,Gambela,ET,2023-08-01 00:20:18,8.25,34.5833,67.19,90,94,0.54
276,Mindelo,CV,2023-08-01 00:20:18,16.8901,-24.9804,80.15,83,40,9.22
277,Luzhou,CN,2023-08-01 00:20:18,28.8724,105.4405,77.65,95,100,3.2
278,Castlerea,IE,2023-08-01 00:20:19,53.7667,-8.5,54.95,89,59,13.8
279,Pierre,US,2023-08-01 00:16:39,44.3683,-100.351,90.52,40,0,11.5
280,Tuatapere,NZ,2023-08-01 00:20:20,-46.1333,167.6833,41.0,94,88,7.78
281,Loon,PH,2023-08-01 00:20:20,9.7998,123.7929,82.72,76,98,11.61
282,Carballo,ES,2023-08-01 00:20:20,43.213,-8.691,69.87,90,36,6.31
283,Blackfoot,US,2023-08-01 00:16:01,43.1905,-112.345,92.21,23,99,18.48
284,Pontianak,ID,2023-08-01 00:19:50,-0.0333,109.3333,75.18,100,75,3.44
285,Vestmannaeyjar,IS,2023-08-01 00:20:21,63.4427,-20.2734,53.06,83,39,4.25
286,Bathsheba,BB,2023-08-01 00:20:21,13.2167,-59.5167,83.01,83,20,5.75
287,Nsoko,SZ,2023-08-01 00:20:21,-27.0333,31.95,54.05,89,0,5.73
288,Ossora,RU,2023-08-01 00:20:22,59.2353,163.0719,56.75,60,94,6.29
289,Kholodnyy,RU,2023-08-01 00:20:22,62.7167,147.95,50.13,74,100,7.27
290,Emba,KZ,2023-08-01 00:20:22,48.8264,58.1442,70.75,45,0,8.03
291,Dolores,AR,2023-08-01 00:20:22,-36.3132,-57.6792,53.28,89,100,9.53
292,Mount Gambier,AU,2023-08-01 00:20:23,-37.8333,140.7667,52.93,87,76,3.56
293,Guarapari,BR,2023-08-01 00:20:23,-20.6667,-40.4975,68.9,85,76,5.68
294,Tuktoyaktuk,CA,2023-08-01 00:20:23,69.4541,-133.0374,59.0,94,100,6.91
295,Hay River,CA,2023-08-01 00:20:24,60.8156,-115.7999,67.98,73,100,9.22
296,Mirnyy,RU,2023-08-01 00:20:24,62.5353,113.9611,59.23,47,2,7.0
297,Sindou,BF,2023-08-01 00:20:24,10.6667,-5.1667,73.87,91,75,2.44
298,Cantaura,VE,2023-08-01 00:20:24,9.3057,-64.3584,77.29,83,72,1.54
299,Gariaband,IN,2023-08-01 00:20:25,20.635,82.0614,75.94,93,100,9.19
300,Urubicha,BO,2023-08-01 00:20:25,-15.3833,-62.95,76.44,44,0,1.3
301,Faanui,PF,2023-08-01 00:20:25,-16.4833,-151.75,79.66,78,55,20.51
302,Kailua,US,2023-08-01 00:16:42,21.4022,-157.7394,87.78,58,0,14.97
303,Pevek,RU,2023-08-01 00:20:26,69.7008,170.3133,33.1,98,100,6.6
304,Biak,ID,2023-08-01 00:20:26,-0.9131,122.8766,79.18,77,69,6.29
305,Qingyuan,CN,2023-08-01 00:20:26,23.7,113.0333,82.38,83,100,2.08
306,Irgakly,RU,2023-08-01 00:20:27,44.3611,44.7556,70.92,71,2,6.42
307,Torbay,CA,2023-08-01 00:20:27,47.6666,-52.7314,59.76,96,100,6.91
308,Soto La Marina,MX,2023-08-01 00:20:27,23.7667,-98.2167,90.52,50,81,14.41
309,Altamont,US,2023-08-01 00:18:05,42.2068,-121.7372,88.79,25,0,8.05
310,Kieta,PG,2023-08-01 00:20:28,-6.2167,155.6333,83.66,73,78,3.24
311,Rio Gallegos,AR,2023-08-01 00:20:27,-51.6226,-69.2181,37.45,87,100,17.27
312,Bilibino,RU,2023-08-01 00:20:28,68.0546,166.4372,48.25,71,100,2.53
313,Umm Kaddadah,SD,2023-08-01 00:20:29,13.6017,26.6876,83.32,52,69,11.36
314,Kisangani,CD,2023-08-01 00:20:29,0.5167,25.2,70.63,91,95,1.68
315,Prince Rupert,CA,2023-08-01 00:20:28,54.3161,-130.3201,60.89,87,100,4.61
316,Benicarlo,ES,2023-08-01 00:20:30,40.4165,0.4271,81.9,83,0,8.37
317,Kanye,BW,2023-08-01 00:20:30,-24.9667,25.3327,41.2,44,0,6.82
318,Oranjestad,AW,2023-08-01 00:19:02,12.524,-70.027,84.15,87,20,20.71
319,Sabha,LY,2023-08-01 00:21:31,27.0377,14.4283,88.34,24,0,14.72
320,Montepuez,MZ,2023-08-01 00:21:31,-13.1256,38.9997,62.89,91,19,2.84
321,Lagos,NG,2023-08-01 00:20:24,6.5833,3.75,79.12,94,100,4.12
322,Sishui,CN,2023-08-01 00:21:32,35.6489,117.2758,79.12,81,45,12.28
323,Katsuura,JP,2023-08-01 00:21:32,35.1333,140.3,81.75,83,100,11.32
324,Owando,CG,2023-08-01 00:21:32,-0.4819,15.8999,76.1,77,96,4.43
325,Dingli,MT,2023-08-01 00:21:33,35.8614,14.3822,78.96,78,0,12.66
326,Saint-Leu,RE,2023-08-01 00:21:33,-21.15,55.2833,72.43,89,3,1.36
327,Nishihara,JP,2023-08-01 00:21:33,26.1842,127.7558,85.68,79,75,41.43
328,Bukachacha,RU,2023-08-01 00:21:33,52.9833,116.9167,78.4,46,82,2.3
329,Hofn,IS,2023-08-01 00:21:34,64.2539,-15.2082,51.44,79,97,3.94
330,Havoysund,NO,2023-08-01 00:21:34,70.9963,24.6622,48.43,90,87,11.54
331,Koutiala,ML,2023-08-01 00:21:34,12.3917,-5.4642,76.03,84,100,11.3
332,Talnakh,RU,2023-08-01 00:21:34,69.4865,88.3972,63.21,69,11,1.23
333,Aktash,RU,2023-08-01 00:21:35,50.3,87.7333,51.39,81,27,1.63
334,Clyde River,CA,2023-08-01 00:21:35,70.4692,-68.5914,39.43,100,100,9.22
335,Fare,PF,2023-08-01 00:21:35,-16.7,-151.0167,79.45,77,12,20.78
336,Cockburn Town,TC,2023-08-01 00:18:46,21.4612,-71.1419,83.97,80,57,16.31
337,Abonnema,NG,2023-08-01 00:21:35,4.7084,6.7931,75.49,91,100,8.28
338,Kiunga,PG,2023-08-01 00:21:36,-6.1219,141.2906,76.51,87,97,3.76
339,Rio Linda,US,2023-08-01 00:21:36,38.691,-121.4486,101.01,22,0,6.91
340,Cap-Chat,CA,2023-08-01 00:21:36,49.1001,-66.6821,60.8,67,64,4.61
341,Bronnoysund,NO,2023-08-01 00:21:36,65.4625,12.1997,62.6,67,75,4.61
342,Pisco,PE,2023-08-01 00:21:36,-13.7,-76.2167,66.25,77,0,13.8
343,Pozo Colorado,PY,2023-08-01 00:21:37,-23.4923,-58.7972,77.29,39,0,5.53
344,Hof,DE,2023-08-01 00:21:37,50.3167,11.9167,60.75,91,75,12.66
345,Ketchikan,US,2023-08-01 00:21:37,55.3422,-131.6461,57.67,100,100,14.97
346,Altay,CN,2023-08-01 00:21:37,47.8667,88.1167,73.0,33,26,4.94
347,Ariquemes,BR,2023-08-01 00:21:38,-9.9133,-63.0408,78.84,40,1,1.86
348,Eenhana,NA,2023-08-01 00:21:38,-17.4667,16.3333,51.35,26,20,8.05
349,Okato,NZ,2023-08-01 00:21:38,-39.2,173.8833,52.68,93,62,13.76
350,Tiznit,MA,2023-08-01 00:21:38,29.5833,-9.5,84.6,32,18,2.06
351,Medea,DZ,2023-08-01 00:21:39,36.2642,2.7539,71.92,59,0,2.53
352,Danao,PH,2023-08-01 00:21:39,10.5208,124.0272,86.05,73,97,9.28
353,Mookane,BW,2023-08-01 00:21:39,-23.688,26.6595,49.24,24,0,6.22
354,Sakakah,SA,2023-08-01 00:21:39,29.9697,40.2064,90.97,16,0,6.78
355,Ilinskoye-Khovanskoye,RU,2023-08-01 00:21:40,56.9718,39.7684,58.48,77,53,5.41
356,Itaituba,BR,2023-08-01 00:21:40,-4.2761,-55.9836,82.2,49,33,0.85
357,Wuwei,CN,2023-08-01 00:21:40,37.9281,102.6414,77.99,39,60,2.91
358,Deniliquin,AU,2023-08-01 00:21:40,-35.5333,144.9667,54.14,68,0,7.25
359,Tokmak,UA,2023-08-01 00:21:40,47.2514,35.7058,73.96,44,97,1.23
360,Srednekolymsk,RU,2023-08-01 00:21:41,67.45,153.6833,52.36,66,99,8.48
361,Vila Franca Do Campo,PT,2023-08-01 00:21:41,37.7167,-25.4333,72.01,94,30,0.98
362,Blagoyevo,RU,2023-08-01 00:21:16,63.3667,47.9167,60.75,77,8,5.12
363,Batagay-Alyta,RU,2023-08-01 00:22:42,67.8006,130.4114,53.65,56,21,17.69
364,Kasongo-Lunda,CD,2023-08-01 00:22:42,-6.4667,16.8167,76.05,47,71,1.79
365,Olafsvik,IS,2023-08-01 00:22:42,64.8945,-23.7142,51.26,85,7,7.58
366,Cuyo,PH,2023-08-01 00:22:42,10.8525,121.0086,83.37,77,92,17.38
367,Corn Island,NI,2023-08-01 00:22:42,12.1694,-83.0418,82.85,82,95,15.77
368,Khovu-Aksy,RU,2023-08-01 00:22:43,51.1333,93.6,63.68,78,100,2.59
369,Esperance,AU,2023-08-01 00:22:43,-33.8667,121.9,54.68,69,0,14.23
370,Raga,SS,2023-08-01 00:22:43,8.4596,25.678,69.87,98,97,5.66
371,Qui Nhon,VN,2023-08-01 00:22:43,13.7667,109.2333,80.4,80,100,14.65
372,That Phanom,TH,2023-08-01 00:22:44,16.9364,104.7104,77.02,99,100,4.52
373,Ordzhonikidze,KZ,2023-08-01 00:22:44,52.4411,61.7408,65.98,70,18,3.31
374,Burnie,AU,2023-08-01 00:22:44,-41.0667,145.9167,52.45,67,33,16.75
375,Pasni,PK,2023-08-01 00:22:44,25.2631,63.471,81.36,87,92,8.63
376,Mnogovershinnyy,RU,2023-08-01 00:22:44,53.9353,139.9242,56.26,99,100,5.5
377,Khorramshahr,IR,2023-08-01 00:22:45,30.4397,48.1664,94.96,18,0,6.91
378,Olinda,BR,2023-08-01 00:20:09,-8.0089,-34.8553,78.53,73,20,11.5
379,San Angelo,US,2023-08-01 00:21:11,31.4638,-100.437,103.05,26,75,8.05
380,Gemena,CD,2023-08-01 00:22:45,3.25,19.7667,73.62,88,100,0.92
381,Nuevo Progreso,MX,2023-08-01 00:22:46,23.1667,-97.95,85.89,58,77,4.0
382,Kerrobert,CA,2023-08-01 00:22:46,51.9168,-109.1348,86.05,36,3,12.03
383,Berberati,CF,2023-08-01 00:22:46,4.2612,15.7922,68.99,97,90,3.31
384,Fairview,US,2023-08-01 00:22:47,40.8126,-73.999,79.81,51,0,9.22
385,Conde,BR,2023-08-01 00:22:47,-7.2597,-34.9075,72.86,88,0,8.05
386,Jacareacanga,BR,2023-08-01 00:22:47,-6.2222,-57.7528,83.7,44,79,0.67
387,Kankakee,US,2023-08-01 00:22:47,41.15,-87.8667,80.55,64,0,3.44
388,Kharp,RU,2023-08-01 00:22:47,66.8014,65.8081,58.8,74,26,2.89
389,San Policarpo,PH,2023-08-01 00:22:48,12.1791,125.5072,82.98,76,100,7.58
390,Las Vegas,US,2023-08-01 00:18:35,36.175,-115.1372,102.11,21,0,11.01
391,Skeldon,GY,2023-08-01 00:22:48,5.8833,-57.1333,77.5,87,33,6.87
392,Kodiak,US,2023-08-01 00:22:48,57.79,-152.4072,56.71,88,100,4.61
393,Hounde,BF,2023-08-01 00:22:49,11.5,-3.5167,74.28,92,87,5.7
394,Parabel,RU,2023-08-01 00:22:49,58.6978,81.4825,63.27,95,99,3.0
395,Bambous Virieux,MU,2023-08-01 00:22:49,-20.3428,57.7575,73.65,78,75,10.36
396,Bonga,ET,2023-08-01 00:22:49,7.2833,36.2333,60.35,99,100,0.38
397,Macusani,PE,2023-08-01 00:22:50,-14.0833,-70.4333,34.99,82,45,2.71
398,Kloulklubed,PW,2023-08-01 00:22:50,7.0419,134.2556,86.5,78,87,9.06
399,Armidale,AU,2023-08-01 00:22:50,-30.5167,151.65,58.89,32,0,2.68
400,Bonthe,SL,2023-08-01 00:21:15,7.5264,-12.505,77.59,87,99,7.61
401,Winnemucca,US,2023-08-01 00:22:51,40.973,-117.7357,95.05,9,0,6.91
402,Henties Bay,NA,2023-08-01 00:22:51,-22.116,14.2845,54.34,73,0,4.74
403,Lamu,KE,2023-08-01 00:22:51,-2.2717,40.902,75.42,84,14,13.24
404,Faya,SA,2023-08-01 00:22:51,18.3851,42.4509,73.51,37,96,4.88
405,Yabelo,ET,2023-08-01 00:22:51,4.8833,38.0833,61.14,74,100,5.19
406,Swadlincote,GB,2023-08-01 00:23:52,52.774,-1.5574,58.06,91,20,17.27
407,Maniitsoq,GL,2023-08-01 00:23:52,65.4167,-52.9,43.09,83,99,8.61
408,Reconquista,AR,2023-08-01 00:23:52,-29.15,-59.65,72.07,65,45,9.15
409,Poltavka,RU,2023-08-01 00:23:52,54.3663,71.7632,66.76,72,51,4.59
410,Kashi,CN,2023-08-01 00:23:53,39.4547,75.9797,76.21,33,0,11.18
411,Ixtapa,MX,2023-08-01 00:23:53,20.7,-105.2,87.03,70,100,6.91
412,Hirara,JP,2023-08-01 00:23:53,24.8,125.2833,84.47,84,75,25.32
413,Esil,KZ,2023-08-01 00:23:53,51.9556,66.4042,68.56,58,13,7.05
414,Florianopolis,BR,2023-08-01 00:23:48,-27.6146,-48.5012,61.83,91,0,2.3
415,Ancud,CL,2023-08-01 00:23:54,-41.8697,-73.8203,50.16,76,80,28.21
416,Avigliana,IT,2023-08-01 00:23:54,45.0771,7.3986,71.4,80,25,5.75
417,Dunedin,NZ,2023-08-01 00:23:54,-45.8742,170.5036,54.81,39,35,4.0
418,Ngunguru,NZ,2023-08-01 00:23:54,-35.6167,174.5,60.15,71,11,6.04
419,Caucaia,BR,2023-08-01 00:20:27,-3.7361,-38.6531,81.03,73,20,10.36
420,Russell,US,2023-08-01 00:23:55,32.3502,-85.1999,89.01,55,0,4.61
421,Hastings,GB,2023-08-01 00:23:55,50.8552,0.5729,61.29,47,95,15.75
422,Porto Walter,BR,2023-08-01 00:23:55,-8.2686,-72.7439,78.1,47,0,0.58
423,Uvira,CD,2023-08-01 00:23:55,-3.4067,29.1458,74.35,56,39,0.89
424,Asau,RO,2023-08-01 00:23:56,46.4333,26.4,58.28,92,81,3.96
425,High Rock,BS,2023-08-01 00:23:56,26.6208,-78.2833,86.02,71,100,6.46
426,Zhezkazgan,KZ,2023-08-01 00:23:56,47.8043,67.7144,67.98,37,0,11.18
427,Krasnoyarka,RU,2023-08-01 00:23:56,55.3333,73.1167,62.55,72,49,0.51
428,Klyuchevskiy,RU,2023-08-01 00:23:57,53.5317,119.4519,73.62,56,43,2.26
429,Muisne,EC,2023-08-01 00:23:57,0.6,-80.0333,78.3,86,85,8.39
430,Homer,US,2023-08-01 00:23:57,59.6425,-151.5483,69.04,69,100,14.97
431,Kuminskiy,RU,2023-08-01 00:23:57,58.6667,66.5667,58.06,98,24,4.25
432,Yatou,CN,2023-08-01 00:23:57,37.15,122.3833,81.1,76,94,5.37
433,Gasan,PH,2023-08-01 00:23:58,13.3237,121.8467,82.85,77,75,7.34
434,Bandiagara,ML,2023-08-01 00:23:58,14.3501,-3.6104,77.22,80,99,21.43
435,Puerto Asis,CO,2023-08-01 00:23:58,0.5133,-76.5007,69.84,87,100,2.62
436,Promyshlennyy,RU,2023-08-01 00:23:58,67.5833,63.9167,62.04,77,16,1.16
437,Nouadhibou,MR,2023-08-01 00:23:59,20.931,-17.0347,71.58,83,40,2.3
438,Navolato,MX,2023-08-01 00:23:59,24.7672,-107.6944,96.98,47,0,10.56
439,Westport,US,2023-08-01 00:23:59,41.1415,-73.3579,76.17,61,75,9.22
440,Sioux Falls,US,2023-08-01 00:20:00,43.55,-96.7003,84.06,62,40,10.36
441,Snezhnogorsk,RU,2023-08-01 00:24:00,69.1933,33.2531,51.58,96,100,8.93
442,Dongsheng,CN,2023-08-01 00:24:00,39.8161,109.9776,71.71,76,7,18.5
443,Saint-Augustin,CA,2023-08-01 00:24:00,51.226,-58.6502,54.07,78,71,4.99
444,Rabo De Peixe,PT,2023-08-01 00:24:00,37.8,-25.5833,71.11,94,20,1.14
445,Salto Del Guaira,PY,2023-08-01 00:24:00,-24.0625,-54.3069,67.17,73,0,3.6
446,Sinazongwe,ZM,2023-08-01 00:24:01,-17.2614,27.4618,62.78,33,0,11.83
447,San Pedro De Macoris,DO,2023-08-01 00:24:01,18.4616,-69.2972,83.01,79,81,9.08
448,Bantry,IE,2023-08-01 00:24:01,51.6833,-9.45,59.79,93,42,7.7
449,Coquimbo,CL,2023-08-01 00:23:18,-29.9533,-71.3436,55.13,94,100,5.75
450,Bereda,ES,2023-08-01 00:24:02,43.2686,-7.5406,59.02,95,8,3.53
451,Bideford,GB,2023-08-01 00:24:03,51.0179,-4.2046,63.36,89,57,20.74
452,Bandundu,CD,2023-08-01 00:25:03,-3.3167,17.3667,80.4,46,97,3.91
453,Bintulu,MY,2023-08-01 00:25:08,3.1667,113.0333,79.21,94,20,0.0
454,Camacha,PT,2023-08-01 00:25:09,33.0833,-16.3333,71.02,83,40,10.36
455,Port Blair,IN,2023-08-01 00:25:09,11.6667,92.75,84.24,79,40,13.8
456,Shimoda,JP,2023-08-01 00:25:09,34.6667,138.95,88.16,75,100,4.38
457,Kutum,SD,2023-08-01 00:25:09,14.2,24.6667,73.38,61,63,9.37
458,Komsomolskiy,UZ,2023-08-01 00:25:10,40.4272,71.7189,77.72,36,0,4.61
459,Erzin,TR,2023-08-01 00:25:10,36.9559,36.2,75.7,88,16,1.39
460,Tura,IN,2023-08-01 00:25:10,25.5198,90.2201,76.21,95,100,3.24
461,Kathmandu,NP,2023-08-01 00:22:24,27.7167,85.3167,70.02,94,75,4.61
462,Saskylakh,RU,2023-08-01 00:25:10,71.9167,114.0833,63.79,36,71,7.7
463,Jasper,US,2023-08-01 00:25:11,37.2001,-94.3502,94.1,52,0,10.36
464,Angoche,MZ,2023-08-01 00:25:11,-16.2325,39.9086,71.82,76,0,3.62
465,Placido De Castro,BR,2023-08-01 00:25:11,-10.3353,-67.1856,79.97,43,0,2.28
466,Porto Santo,PT,2023-08-01 00:25:11,33.072,-16.3415,73.78,83,40,10.36
467,Sistranda,NO,2023-08-01 00:25:12,63.7256,8.834,57.16,94,98,5.39
468,Carutapera,BR,2023-08-01 00:25:12,-1.195,-46.02,76.91,88,2,5.68
469,Presidencia Roque Saenz Pena,AR,2023-08-01 00:25:12,-26.7852,-60.4388,74.46,54,1,6.87
470,Wajima,JP,2023-08-01 00:25:12,37.4,136.9,88.48,70,40,3.44
471,Solhan,TR,2023-08-01 00:25:13,38.9634,41.0293,66.72,37,0,1.81
472,Ballina,AU,2023-08-01 00:25:13,-28.8667,153.5667,70.79,72,34,3.62
473,Turukhansk,RU,2023-08-01 00:25:13,65.8167,87.9833,72.73,64,4,6.31
474,Lompoc,US,2023-08-01 00:25:13,34.6391,-120.4579,87.94,73,75,11.5
475,Byron Bay,AU,2023-08-01 00:25:14,-28.65,153.6167,70.72,75,27,4.97
476,Berlevag,NO,2023-08-01 00:25:14,70.8578,29.0864,48.0,93,100,11.5
477,Sola,VU,2023-08-01 00:25:14,-13.8833,167.55,81.27,65,75,11.5
478,Kungurtug,RU,2023-08-01 00:25:15,50.5994,97.5228,59.11,98,100,2.21
479,Miyako,JP,2023-08-01 00:25:15,39.6367,141.9525,80.69,68,99,3.62
480,Eureka,US,2023-08-01 00:25:15,40.8021,-124.1637,70.2,74,18,8.01
481,Pont-A-Mousson,FR,2023-08-01 00:25:15,48.9079,6.0589,68.38,85,0,16.11
482,Syracuse,IT,2023-08-01 00:25:16,37.0881,15.2792,76.59,75,1,12.5
483,Praya,CV,2023-08-01 00:25:16,14.9215,-23.5087,81.14,83,40,5.75
484,Taltal,CL,2023-08-01 00:25:17,-25.4,-70.4833,60.87,82,25,5.37
485,Broome,US,2023-08-01 00:25:17,42.2506,-75.833,65.53,85,13,3.0
486,Natal,BR,2023-08-01 00:25:17,-5.795,-35.2094,75.85,88,0,9.22
487,Sokoni,TZ,2023-08-01 00:25:17,-6.4333,39.55,76.28,83,4,16.33
488,San Ramon De La Nueva Oran,AR,2023-08-01 00:25:18,-23.1322,-64.326,69.42,47,0,3.38
489,Sosua,DO,2023-08-01 00:25:18,19.7667,-70.5167,84.18,84,40,11.5
490,Delvada,IN,2023-08-01 00:25:18,20.7667,71.0333,79.86,87,100,17.16
491,Hamilton,US,2023-08-01 00:24:51,39.1834,-84.5333,78.01,55,20,6.91
492,Kahului,US,2023-08-01 00:25:19,20.8947,-156.47,86.02,63,40,27.63
493,Fortuna,US,2023-08-01 00:25:19,40.5982,-124.1573,66.65,73,0,14.97
494,Karratha,AU,2023-08-01 00:25:19,-20.7377,116.8463,74.28,43,98,9.06
495,Susanino,RU,2023-08-01 00:25:20,58.1461,41.5872,54.14,97,27,4.47
496,Makakilo City,US,2023-08-01 00:25:20,21.3469,-158.0858,86.32,54,40,19.57
497,Pio Xii,BR,2023-08-01 00:25:20,-3.8325,-45.1525,79.81,50,27,2.84
498,Juazeiro,BR,2023-08-01 00:23:03,-9.4117,-40.4986,78.98,53,0,10.36
499,Coihaique,CL,2023-08-01 00:25:21,-45.5752,-72.0662,39.92,95,100,9.95
500,Slave Lake,CA,2023-08-01 00:25:21,55.2834,-114.769,71.58,60,20,10.36
501,Saldanha,ZA,2023-08-01 00:25:21,-33.0117,17.9442,41.05,76,2,7.2
502,Motomiya,JP,2023-08-01 00:26:22,37.5167,140.4,71.67,82,100,3.6
503,Kununurra,AU,2023-08-01 00:24:34,-15.7667,128.7333,82.38,28,7,16.11
504,Pitimbu,BR,2023-08-01 00:26:22,-7.4706,-34.8086,73.99,84,3,11.03
505,Nanaimo,CA,2023-08-01 00:21:47,49.1663,-123.936,78.89,57,40,5.75
506,China,MX,2023-08-01 00:25:53,25.7,-99.2333,101.59,27,82,14.9
507,Kedrovyy,RU,2023-08-01 00:26:23,56.1667,91.8167,63.01,85,10,2.06
508,Phalodi,IN,2023-08-01 00:26:23,27.1333,72.3667,85.05,70,2,15.95
509,Antofagasta,CL,2023-08-01 00:26:23,-23.65,-70.4,61.88,85,9,5.99
510,Khorinsk,RU,2023-08-01 00:26:24,52.1657,109.7726,72.3,59,35,0.85
511,Road Town,VG,2023-08-01 00:26:24,18.4167,-64.6167,84.29,74,20,9.22
512,Vardo,NO,2023-08-01 00:26:24,70.3705,31.1107,46.38,100,100,6.91
513,Mawlaik,MM,2023-08-01 00:26:25,23.6333,94.4167,76.95,99,100,1.23
514,Turayf,SA,2023-08-01 00:26:25,31.6725,38.6637,80.85,18,0,13.8
515,Igarka,RU,2023-08-01 00:26:25,67.4667,86.5833,66.51,80,2,8.77
516,Tadine,NC,2023-08-01 00:26:26,-21.55,167.8833,69.31,61,7,16.08
517,Rovaniemi,FI,2023-08-01 00:26:26,66.5,25.7167,60.21,88,0,6.91
518,Marzuq,YE,2023-08-01 00:26:26,14.4,46.4667,78.87,51,97,7.07
519,Jabinyanah,TN,2023-08-01 00:26:26,35.035,10.9081,80.91,68,0,4.94
520,Mount Darwin,ZW,2023-08-01 00:26:27,-16.7725,31.5838,54.45,70,3,3.36
521,Tupik,RU,2023-08-01 00:26:27,54.4253,119.9327,73.92,56,3,3.58
522,Vostok,RU,2023-08-01 00:26:27,46.4856,135.8833,74.89,67,89,9.66
523,Rio Muerto,MX,2023-08-01 00:26:28,27.4167,-110.2333,95.52,40,2,10.54
524,Lethem,GY,2023-08-01 00:26:28,3.3803,-59.7968,79.2,80,35,5.53
525,Marsh Harbour,BS,2023-08-01 00:26:28,26.5412,-77.0636,85.46,70,100,6.04
526,Stromness,GB,2023-08-01 00:21:47,58.965,-3.296,55.36,91,23,7.0
527,Bonnyville,CA,2023-08-01 00:26:29,54.2668,-110.735,78.6,38,8,11.12
528,Maltahohe,NA,2023-08-01 00:26:29,-24.8333,16.9833,40.51,31,0,10.11
529,Iralaya,HN,2023-08-01 00:26:29,15.0,-83.2333,80.82,88,51,11.43
530,Waingapu,ID,2023-08-01 00:26:29,-9.6567,120.2641,77.4,76,74,9.31
531,Abha,SA,2023-08-01 00:26:30,18.2164,42.5053,73.22,60,97,0.0
532,Richards Bay,ZA,2023-08-01 00:26:30,-28.783,32.0377,64.35,57,84,5.7
533,Safaga,EG,2023-08-01 00:26:31,26.7292,33.9365,87.93,41,0,3.96
534,Soligalich,RU,2023-08-01 00:26:31,59.0778,42.2864,55.42,98,82,6.15
535,Evans,US,2023-08-01 00:26:31,33.5337,-82.1307,90.0,67,0,4.61
536,Manado,ID,2023-08-01 00:26:31,1.487,124.8455,84.97,74,20,3.44
537,San Patricio,US,2023-08-01 00:26:32,28.017,-97.5169,95.72,48,62,14.74
538,Tautira,PF,2023-08-01 00:26:32,-17.7333,-149.15,78.46,77,9,20.98
539,Menongue,AO,2023-08-01 00:26:32,-14.6585,17.691,50.56,42,35,4.83
540,Kotido,UG,2023-08-01 00:26:32,2.9806,34.1331,66.02,87,94,6.17
541,Magadan,RU,2023-08-01 00:26:33,59.5667,150.8,60.53,84,100,8.48
542,Oudtshoorn,ZA,2023-08-01 00:26:33,-33.5907,22.2014,43.16,83,39,1.95
543,Sohag,EG,2023-08-01 00:26:33,26.557,31.6948,85.66,23,1,3.33
544,Kamenka,RU,2023-08-01 00:26:33,51.3223,42.7678,63.18,66,78,3.18
545,Kahta,TR,2023-08-01 00:26:33,37.7855,38.6237,79.97,41,0,1.45
546,Narsaq,GL,2023-08-01 00:26:34,60.9167,-46.05,50.22,90,40,4.68
547,Eston,CA,2023-08-01 00:26:34,51.1501,-108.7514,86.92,26,0,11.32
548,Zlobin,HR,2023-08-01 00:27:34,45.2924,14.6541,64.58,80,77,3.44
549,Hangha,SL,2023-08-01 00:27:34,7.9411,-11.14,72.77,99,100,2.57
550,Alto Araguaia,BR,2023-08-01 00:27:35,-17.3147,-53.2153,71.69,35,6,5.88
551,Cedral,MX,2023-08-01 00:27:35,23.8,-100.7333,80.17,41,86,17.11
552,Kincardine,GB,2023-08-01 00:27:35,56.0667,-3.7167,59.18,95,94,2.44
553,Edson,CA,2023-08-01 00:27:36,53.5835,-116.4356,71.74,37,0,4.61
554,Shenzhen,CN,2023-08-01 00:27:32,22.5455,114.0683,87.33,77,99,4.92
555,Three Hills,CA,2023-08-01 00:27:36,51.7001,-113.2686,80.67,41,3,8.05
556,Waipawa,NZ,2023-08-01 00:27:36,-41.4122,175.5153,56.17,67,16,23.47
557,Gat,IL,2023-08-01 00:27:37,31.61,34.7642,80.4,100,0,1.21
558,Teya,RU,2023-08-01 00:27:37,60.3778,92.6267,64.56,96,24,1.36
559,Mandvi,IN,2023-08-01 00:27:37,22.8333,69.3667,81.63,86,100,20.87
560,Pilar,BR,2023-08-01 00:27:18,-9.5972,-35.9567,73.33,92,6,3.24
561,Nerchinskiy Zavod,RU,2023-08-01 00:27:38,51.3088,119.61,81.99,37,82,2.28
562,Elko,US,2023-08-01 00:27:38,41.0002,-115.5012,93.22,13,81,8.01
563,Samarai,PG,2023-08-01 00:27:38,-10.6167,150.6667,77.85,84,62,14.14
